City,Lat,Lng,Max Temp,Humidity,Clouds,Wind Speed,Country,Date
Rikitea,-23.1203,-134.9692,80.13,71,0,7.54,PF,1616357944
Ushuaia,-54.8,-68.3,55.4,58,40,18.41,AR,1616357707
Busselton,-33.65,115.3333,64.99,95,80,3.0,AU,1616357988
Sakakah,29.9697,40.2064,73.4,17,0,4.61,SA,1616358327
Saldanha,-33.0117,17.9442,62.6,67,0,6.91,ZA,1616358034
Kayes,14.0,-11.0,91.58,18,0,7.83,ML,1616358042
Avarua,-21.2078,-159.775,78.8,89,75,8.05,CK,1616357717
Punta Arenas,-53.15,-70.9167,59.0,55,40,19.57,CL,1616357944
Shitkino,56.3703,98.3543,29.37,90,100,6.42,RU,1616358328
Arman',59.7,150.1667,6.55,92,100,7.05,RU,1616358329
Miandrivazo,-19.5167,45.4667,79.5,83,92,1.25,MG,1616358329
Arraial do Cabo,-22.9661,-42.0278,86.0,69,0,23.02,BR,1616357954
Kabanjahe,3.1001,98.4908,78.8,94,40,2.3,ID,1616358070
Yellowknife,62.456,-114.3525,0.0,55,20,14.97,CA,1616357999
Zalesovo,53.9939,84.7431,30.76,93,100,11.18,RU,1616358073
Albany,42.6001,-73.9662,63.0,18,20,2.95,US,1616357720
Abnūb,27.2696,31.1511,86.0,42,0,4.97,EG,1616358330
Aquidauana,-20.4711,-55.7872,90.59,52,81,2.1,BR,1616358273
Saint-Philippe,-21.3585,55.7679,77.0,88,75,3.44,RE,1616357949
Caucayá,-0.1934,-74.7819,90.77,47,96,1.72,CO,1616358331
Vila Velha,-20.3297,-40.2925,84.99,74,40,6.91,BR,1616357882
Kapaa,22.0752,-159.319,73.4,64,40,19.57,US,1616357945
Broome,42.2506,-75.833,63.0,17,1,3.44,US,1616357991
Puerto Ayora,-0.7393,-90.3518,86.0,66,20,8.05,EC,1616357954
Gravdal,68.1214,13.5031,26.6,93,75,3.44,NO,1616358104
Nanortalik,60.1432,-45.2371,25.03,78,100,30.96,GL,1616358029
Waynesboro,38.0685,-78.8895,63.0,20,1,4.61,US,1616358065
Mataura,-46.1927,168.8643,54.0,95,100,3.0,NZ,1616357943
Kaitangata,-46.2817,169.8464,57.99,85,97,4.0,NZ,1616358090
Richards Bay,-28.783,32.0377,71.4,86,90,11.92,ZA,1616357803
Hithadhoo,-0.6,73.0833,82.98,75,99,9.4,MV,1616357985
Hobart,-42.8794,147.3294,57.2,94,40,5.75,AU,1616357830
Paraná,-31.732,-60.5238,82.99,40,0,1.01,AR,1616358056
Samarai,-10.6167,150.6667,82.71,78,99,8.1,PG,1616358044
St. George's,12.0564,-61.7485,82.4,69,20,20.71,GD,1616358334
Mahébourg,-20.4081,57.7,78.8,89,75,9.22,MU,1616358020
Tasiilaq,65.6145,-37.6368,28.4,74,20,6.91,GL,1616357945
Ixtapa,20.7,-105.2,77.0,61,1,12.66,MX,1616358107
Corn Island,12.1694,-83.0418,79.38,76,36,19.1,NI,1616358335
Khuzdar,27.7384,66.6434,61.61,59,81,1.68,PK,1616358336
Saint Paul Harbor,57.79,-152.4072,35.6,75,90,4.61,US,1616357998
Kavaratti,10.5669,72.642,82.47,71,0,7.49,IN,1616358062
Bethel,41.3712,-73.414,64.99,15,1,3.44,US,1616357995
Kuznechnoye,61.12,29.8686,32.0,92,100,14.14,RU,1616358337
Zhigansk,66.7697,123.3711,-19.12,92,100,20.62,RU,1616358337
Hay River,60.8156,-115.7999,1.4,66,89,6.91,CA,1616357847
Touros,-5.1989,-35.4608,82.4,74,20,13.8,BR,1616358099
Cabo San Lucas,22.8909,-109.9124,88.0,28,1,6.06,MX,1616358045
Ayan,56.45,138.1667,14.65,93,100,9.64,RU,1616358092
Dongxing,45.3667,130.8,25.11,78,20,9.91,CN,1616358338
Bluff,-46.6,168.3333,54.0,95,100,3.0,NZ,1616357953
Mayo,38.8876,-76.5119,61.0,29,1,4.61,US,1616357958
Santiago,-33.4569,-70.6483,80.01,35,40,5.75,CL,1616358339
Alaşehir,38.3508,28.5172,56.7,76,0,4.23,TR,1616358339
Brae,60.3964,-1.353,44.6,93,90,19.57,GB,1616358340
Simpang,-1.2667,104.0833,75.11,97,100,2.24,ID,1616358340
Port Hardy,50.6996,-127.4199,42.8,87,90,8.05,CA,1616358340
Dikson,73.5069,80.5464,-11.83,65,100,4.99,RU,1616357949
St. Pete Beach,27.7253,-82.7412,63.0,72,90,17.27,US,1616358341
Margate,51.3813,1.3862,43.0,72,100,1.99,GB,1616358015
Philadelphia,39.9523,-75.1638,66.0,19,20,4.61,US,1616358128
Castro,-24.7911,-50.0119,74.35,87,100,3.87,BR,1616357987
Jiuquan,39.7432,98.5174,32.83,29,0,3.24,CN,1616358342
Omboué,-1.5746,9.2618,78.85,87,100,6.08,GA,1616358342
Atuona,-9.8,-139.0333,80.29,77,2,13.8,PF,1616357984
Port Alfred,-33.5906,26.891,64.89,70,90,9.1,ZA,1616358031
Guerrero Negro,27.9769,-114.0611,65.64,49,100,20.18,MX,1616358006
Kumul,42.8,93.45,39.61,24,0,3.02,CN,1616358027
Ribeira Grande,38.5167,-28.7,60.8,77,40,10.36,PT,1616358042
Hofn,64.2539,-15.2082,43.27,83,100,17.27,IS,1616358344
Saskylakh,71.9167,114.0833,-29.38,99,93,2.71,RU,1616357996
Bukama,-9.2,25.85,71.76,85,98,0.04,CD,1616358344
Turukhansk,65.8167,87.9833,-2.36,88,100,19.26,RU,1616358001
Shingū,33.7333,135.9833,48.16,69,1,10.54,JP,1616358017
Goderich,43.7501,-81.7165,57.2,24,0,9.22,CA,1616358345
Butaritari,3.0707,172.7902,82.47,78,100,17.72,KI,1616357946
Nikolskoye,59.7035,30.7861,33.01,86,90,22.37,RU,1616357946
Waiuku,-37.25,174.75,63.0,77,75,2.3,NZ,1616358346
Prainha,-1.8,-53.48,84.45,66,45,2.24,BR,1616358346
Qaanaaq,77.484,-69.3632,-7.47,96,100,3.04,GL,1616357988
Iqaluit,63.7506,-68.5145,-5.01,71,75,3.44,CA,1616358050
Bull Savanna,17.8868,-77.5902,78.4,70,41,10.11,JM,1616358347
Slavuta,50.3016,26.8651,31.1,68,30,8.57,UA,1616358348
Oktyabr'skiy,54.4815,53.471,14.41,95,54,5.64,RU,1616358348
Goya,-29.14,-59.2626,80.67,47,0,7.34,AR,1616358052
Cherskiy,68.75,161.3,-15.43,70,0,5.77,RU,1616358110
Sayyan,15.1718,44.3244,57.45,17,15,8.86,YE,1616358349
Whitehorse,60.7161,-135.0538,17.01,79,90,5.75,CA,1616358027
New Norfolk,-42.7826,147.0587,57.0,76,31,1.7,AU,1616358010
Cockburn Town,21.4612,-71.1419,80.6,65,40,11.5,TC,1616357847
Bǝrdǝ,40.3744,47.1267,50.56,70,96,3.98,AZ,1616358350
Vardø,70.3705,31.1107,24.8,93,20,21.85,NO,1616358042
Fortuna,40.5982,-124.1573,53.01,71,90,13.8,US,1616357767
Esperance,-33.8667,121.9,64.4,72,0,17.27,AU,1616357913
Bryan,30.6744,-96.37,72.0,45,1,9.22,US,1616358351
Port Augusta,-32.5,137.7667,66.2,88,100,5.75,AU,1616358351
Kieta,-6.2167,155.6333,79.36,84,86,1.34,PG,1616358011
Arrondissement de Bastia,42.6667,9.3333,50.0,37,90,14.97,FR,1616358352
Bredasdorp,-34.5322,20.0403,62.6,72,0,5.75,ZA,1616358044
Vaini,-21.2,-175.2,80.6,83,75,4.61,TO,1616357951
Clyde River,70.4692,-68.5914,-13.0,70,1,12.66,CA,1616358039
Atotonilquillo,20.4,-103.1333,86.0,7,1,12.66,MX,1616358353
Jalu,29.0331,21.5482,69.84,32,31,11.05,LY,1616358353
Ponta do Sol,32.6667,-17.1,60.8,51,40,11.5,PT,1616357989
Taoudenni,22.6783,-3.9836,74.62,14,0,12.46,ML,1616358075
Ures,29.4333,-110.4,82.0,24,99,5.01,MX,1616358354
Benghazi,32.1167,20.0667,63.14,80,0,14.25,LY,1616358354
Umluj,25.0213,37.2685,85.05,29,0,9.44,SA,1616358355
Comodoro Rivadavia,-45.8667,-67.5,80.6,28,0,9.22,AR,1616358355
Avera,33.194,-82.5271,62.6,63,75,9.22,US,1616358355
Severo-Kuril'sk,50.6789,156.125,27.88,83,100,24.32,RU,1616358070
Torbay,47.6666,-52.7314,35.01,64,20,16.11,CA,1616358007
Hobyo,5.3505,48.5268,79.41,79,87,15.01,SO,1616358356
Chanika,-5.4167,38.0167,69.3,96,3,4.23,TZ,1616358357
Tuktoyaktuk,69.4541,-133.0374,-14.8,84,20,9.22,CA,1616357999
Gaoua,10.2992,-3.2508,82.04,56,95,9.64,BF,1616358357
Toamasina,-18.1667,49.3833,77.0,2,75,6.91,MG,1616358358
Mahajanga,-15.7167,46.3167,75.2,88,20,3.44,MG,1616358358
Leningradskiy,69.3833,178.4167,-10.79,96,100,9.73,RU,1616358039
Tilichiki,60.4667,166.1,-12.98,88,0,4.36,RU,1616358359
Guarapari,-20.6667,-40.4975,84.99,74,40,6.91,BR,1616358250
Solnechnyy,50.7214,136.6319,21.2,92,100,8.55,RU,1616358359
Stephenville,32.2207,-98.2023,69.8,40,1,17.27,US,1616358360
East London,-33.0153,27.9116,66.25,67,48,13.56,ZA,1616358033
Leshan,29.5623,103.7639,49.03,78,100,2.37,CN,1616358360
Béziers,43.3476,3.219,53.6,40,0,19.57,FR,1616358361
Kirakira,-10.4544,161.9205,78.6,86,98,4.61,SB,1616358074
Grand Gaube,-20.0064,57.6608,80.01,82,1,5.01,MU,1616358361
Setermoen,68.861,18.3486,19.4,93,75,3.2,NO,1616358362
Hermanus,-34.4187,19.2345,63.0,80,3,4.0,ZA,1616357957
Akaltara,22.0167,82.4333,74.57,30,0,2.19,IN,1616358362
Puerto del Rosario,28.5004,-13.8627,64.4,63,20,21.85,ES,1616358074
Oranjestad,12.524,-70.027,84.2,65,40,20.71,AW,1616358363
Moose Factory,51.2585,-80.6094,59.0,26,1,23.02,CA,1616358363
Sahuaripa,29.05,-109.2333,89.31,14,82,17.11,MX,1616358029
Chui,-33.6971,-53.4616,70.25,77,73,13.11,UY,1616357948
Buenos Aires,-34.6132,-58.3772,75.0,68,40,11.5,AR,1616358086
Bengkulu,-3.8004,102.2655,74.95,92,100,5.53,ID,1616357994
Cape Town,-33.9258,18.4232,68.0,63,0,17.27,ZA,1616357700
Terrace,54.5163,-128.6035,35.6,93,90,13.8,CA,1616358365
Kahului,20.8947,-156.47,73.4,83,40,14.97,US,1616357765
Pemangkat,1.1667,108.9667,77.02,89,100,4.65,ID,1616358081
Mabaruma,8.2,-59.7833,82.96,59,14,7.2,GY,1616358365
Lunenburg,44.3835,-64.3155,55.0,70,0,11.5,CA,1616358366
Alekseyevka,50.6309,38.6903,31.17,74,51,8.99,RU,1616358072
Verkhoyansk,67.5447,133.385,-1.43,94,100,2.95,RU,1616358366
Hilo,19.7297,-155.09,73.4,64,90,14.97,US,1616357956
Hasaki,35.7333,140.8333,53.6,94,75,8.05,JP,1616358018
Aksu,41.1231,80.2644,41.65,37,100,2.73,CN,1616358367
Bandarbeyla,9.4942,50.8122,77.79,69,0,7.83,SO,1616358068
Sitka,57.0531,-135.33,39.2,87,90,6.91,US,1616357992
Buala,-8.145,159.5921,79.54,84,81,5.88,SB,1616358368
Bom Jesus do Itabapoana,-21.1339,-41.6797,80.94,82,8,3.62,BR,1616358369
Vestmanna,62.1564,-7.1664,44.6,100,75,12.66,FO,1616358369
Pevek,69.7008,170.3133,-27.0,91,0,5.08,RU,1616358052
Codrington,-38.2667,141.9667,64.8,82,95,12.24,AU,1616358035
Sibolga,1.7427,98.7792,76.06,89,97,3.02,ID,1616357845
Yasnyy,51.0333,59.8742,14.02,95,100,10.13,RU,1616358370
Khatanga,71.9667,102.5,-24.47,78,0,7.38,RU,1616357992
Vila Franca do Campo,37.7167,-25.4333,57.2,82,75,6.91,PT,1616358072
Vallenar,-28.5708,-70.7581,83.73,22,0,9.69,CL,1616358371
Harper,4.375,-7.7169,79.93,86,54,9.57,LR,1616358371
Nouadhibou,20.931,-17.0347,66.2,72,0,14.97,MR,1616358372
Kālāgarh Project Colony,29.5,78.75,70.66,26,0,5.12,IN,1616358372
Padang,-0.9492,100.3543,73.4,100,40,2.3,ID,1616358373
Lebu,-37.6167,-73.65,62.67,66,0,10.4,CL,1616357998
Talnakh,69.4865,88.3972,-15.21,56,66,6.22,RU,1616358034
Thompson,55.7435,-97.8558,37.4,65,75,27.63,CA,1616358049
Ilulissat,69.2167,-51.1,10.4,92,75,26.46,GL,1616358095
Bambous Virieux,-20.3428,57.7575,80.01,89,75,9.22,MU,1616358028
Diffa,13.3154,12.6113,86.86,9,0,5.53,NE,1616358374
Tiksi,71.6872,128.8694,-16.15,98,100,11.34,RU,1616358014
Ilebo,-4.3167,20.5833,74.19,88,100,2.55,CD,1616358375
Coahuayana Viejo,18.7333,-103.6833,84.2,39,1,11.5,MX,1616358033
Ubari,26.5921,12.7805,67.03,8,0,5.84,LY,1616358375
Jiangyou,31.7667,104.7167,46.08,67,74,0.29,CN,1616358376
El Alto,-4.2714,-81.2147,86.0,58,0,12.66,PE,1616358376
Tam Ky,15.5667,108.4833,77.0,83,40,5.75,VN,1616358376
Faanui,-16.4833,-151.75,83.59,71,1,10.07,PF,1616358377
Klaksvík,62.2266,-6.589,44.6,100,90,12.66,FO,1616357999
Port Elizabeth,-33.918,25.5701,64.4,77,75,5.75,ZA,1616358022
Natal'insk,56.4739,57.8698,11.5,94,13,5.84,RU,1616358378
Patacamaya,-17.2333,-67.9167,56.25,52,44,10.94,BO,1616358378
Yulara,-25.2406,130.9889,64.4,100,90,8.05,AU,1616357952
Pemberton,50.3164,-122.8027,35.6,87,90,5.75,CA,1616358379
Jamestown,42.097,-79.2353,60.8,12,1,6.73,US,1616357892
George Town,5.4112,100.3354,82.4,78,20,3.44,MY,1616358012
São Filipe,14.8961,-24.4956,71.15,71,99,8.93,CV,1616357996
Mitchell,43.7094,-98.0298,53.6,47,75,24.16,US,1616358322
Parabel',58.6978,81.4825,20.48,90,31,9.28,RU,1616357997
Ancud,-41.8697,-73.8203,66.2,52,0,9.22,CL,1616358012
Bollnäs,61.3482,16.3946,35.01,53,100,5.99,SE,1616358380
Eyl,7.9803,49.8164,75.96,77,11,12.12,SO,1616358098
Bagenalstown,52.7003,-6.9618,50.0,78,12,0.56,IE,1616358381
Georgiyevskoye,58.731,45.024,25.45,95,100,10.07,RU,1616358381
Narsaq,60.9167,-46.05,24.8,68,75,13.8,GL,1616358079
Banda Aceh,5.5577,95.3222,79.99,74,100,2.91,ID,1616358110
Hare Bay,48.8499,-54.0148,33.8,60,97,10.36,CA,1616358382
Lüderitz,-26.6481,15.1594,69.01,61,0,16.06,NA,1616357986
Itarema,-2.9248,-39.9167,81.28,73,100,12.95,BR,1616358057
Nuevo Comalapa,15.65,-92.1333,90.14,36,8,3.44,MX,1616358383
Usogorsk,63.4106,48.6872,22.39,94,100,8.84,RU,1616358383
Raton,36.9034,-104.4391,66.2,7,1,16.11,US,1616358384
Mar del Plata,-38.0023,-57.5575,64.4,63,40,12.66,AR,1616357700
Umm Kaddadah,13.6017,26.6876,87.53,14,100,10.96,SD,1616358384
Mercedes,-34.6515,-59.4307,75.99,61,0,1.01,AR,1616358385
Arrondissement de Saint-Denis,48.9167,2.3333,46.0,65,90,8.05,FR,1616358386
Mananjary,-21.2167,48.3333,76.21,89,90,2.17,MG,1616358386
Geraldton,-28.7667,114.6,68.0,94,0,5.75,AU,1616358387
Grand Forks,47.9417,-97.4337,46.4,100,90,3.44,US,1616358387
Røros,62.5747,11.3842,28.4,80,90,5.75,NO,1616358387
Ribas do Rio Pardo,-20.4431,-53.7592,84.79,64,99,4.94,BR,1616358388
Porosozero,62.7191,32.727,25.14,94,99,13.91,RU,1616358388
San Patricio,28.017,-97.5169,78.8,46,20,18.41,US,1616358112
Pisco,-13.7,-76.2167,80.6,50,0,19.57,PE,1616358046
Biak,-0.9131,122.8766,76.91,81,34,0.65,ID,1616358021
Hamilton,39.1834,-84.5333,66.99,15,1,4.61,US,1616358389
Bograd,54.2344,90.8328,39.2,60,0,11.18,RU,1616358390
Wu’an,31.6836,112.0044,45.43,45,100,2.19,CN,1616358390
Constitución,-35.3333,-72.4167,65.16,66,2,7.31,CL,1616358056
Buraidah,26.326,43.975,73.4,38,0,2.3,SA,1616358391
Digby,44.6169,-65.7655,59.0,26,0,5.75,CA,1616358392
Provideniya,64.3833,-173.3,5.0,78,75,4.47,RU,1616357945
Krasnaya Gorbatka,55.8703,41.7641,26.6,91,100,10.45,RU,1616358392
Portland,45.5234,-122.6762,50.0,57,75,12.66,US,1616357724
Singkang,2.1006,102.7994,80.6,83,20,3.44,MY,1616358393
Kisi,9.0833,3.85,88.14,37,20,5.97,NG,1616358393
Donskoye,45.4552,41.9741,32.0,80,40,4.47,RU,1616358394
Oranjemund,-28.55,16.4333,63.84,80,0,8.25,NA,1616358078
Pesochnoye,58.006,39.1772,28.31,93,100,11.27,RU,1616358394
Arlit,18.7369,7.3853,89.08,12,80,7.78,NE,1616358394
Ialibu,-6.2821,143.9935,55.26,93,91,2.51,PG,1616357948
Yurginskoye,56.8189,67.3921,19.53,93,96,5.75,RU,1616358395
La Ronge,55.1001,-105.2842,23.0,50,89,13.8,CA,1616358025
Souillac,-20.5167,57.5167,78.8,89,75,9.22,MU,1616358015
Itoman,26.1247,127.6694,62.6,59,75,24.16,JP,1616358396
Airai,-8.9266,125.4092,60.71,87,86,1.25,TL,1616358015
Eastbourne,50.7687,0.2845,45.0,73,100,8.48,GB,1616358331
Port Macquarie,-31.4333,152.9167,66.0,99,100,16.04,AU,1616357955
Rjukan,59.8789,8.5941,35.01,65,100,1.01,NO,1616358397
Belyy Yar,53.6039,91.3903,39.2,60,0,11.18,RU,1616358077
Aripuanã,-9.1667,-60.6333,79.7,78,89,2.24,BR,1616358049
Ulladulla,-35.35,150.4667,66.2,100,75,9.22,AU,1616358397
Saint George,37.1041,-113.5841,61.0,33,1,5.75,US,1616357953
Taksimo,56.3444,114.8794,12.47,86,76,0.09,RU,1616358398
Fairbanks,64.8378,-147.7164,10.99,47,1,3.0,US,1616357810
Danané,7.2596,-8.155,70.47,94,100,4.85,CI,1616358399
Hong Kong,22.2855,114.1577,62.01,67,88,3.0,HK,1616358061
Osa,57.2829,55.4567,15.15,93,65,7.52,RU,1616358400
Ikongo,-21.8833,47.4333,69.98,98,71,1.81,MG,1616358400
Canavieiras,-15.675,-38.9472,82.4,74,75,3.44,BR,1616358400
Ahwa,20.75,73.6833,72.01,16,0,1.95,IN,1616358401
Yabēlo,4.8833,38.0833,62.89,72,0,13.18,ET,1616358401
Kavieng,-2.5744,150.7967,82.96,74,99,5.88,PG,1616358040
Doumé,4.2333,13.45,71.01,93,97,3.18,CM,1616358402
Teya,60.3778,92.6267,28.51,91,100,9.71,RU,1616358402
Atar,20.5169,-13.0499,75.27,15,74,8.93,MR,1616358079
Puerto Quijarro,-17.7833,-57.7667,86.22,75,99,3.18,BO,1616358403
Manitouwadge,49.1215,-85.8403,48.2,43,40,19.57,CA,1616358403
Barrow,71.2906,-156.7887,-11.2,70,1,11.5,US,1616357744
Inhambane,-23.865,35.3833,76.28,86,0,7.07,MZ,1616358404
Kolondiéba,11.0882,-6.8926,80.19,58,15,4.16,ML,1616358404
Takoradze,4.8845,-1.7554,81.07,83,0,11.79,GH,1616358405
Sept-Îles,50.2001,-66.3821,42.8,49,75,9.22,CA,1616358038
Jardim,-21.4803,-56.1381,85.23,72,81,3.58,BR,1616358405
Tai’an,36.1853,117.12,46.99,32,0,3.71,CN,1616358405
Berlevåg,70.8578,29.0864,30.2,59,40,27.63,NO,1616358043
Dongargaon,20.9667,80.85,78.66,30,0,3.02,IN,1616358406
Jacareacanga,-6.2222,-57.7528,84.04,75,94,1.72,BR,1616358406
Niesky,51.2924,14.8211,35.01,82,0,3.0,DE,1616358407
Lyubech,51.7026,30.6569,31.06,60,95,7.85,UA,1616358407
Nizwá,22.9333,57.5333,67.17,19,0,5.59,OM,1616358408
Manicoré,-5.8092,-61.3003,82.4,78,0,4.61,BR,1616358408
Ostrovnoy,68.0531,39.5131,21.22,92,100,4.41,RU,1616358023
Upernavik,72.7868,-56.1549,-8.77,91,100,3.44,GL,1616358005
Zainsk,55.3195,52.0694,19.4,73,0,8.95,RU,1616358409
Mackay,-21.15,149.2,77.0,88,40,5.75,AU,1616357995
Sal Rei,16.1833,-22.9167,69.8,73,75,16.11,CV,1616358410
Salalah,17.0151,54.0924,78.8,89,0,1.14,OM,1616357773
Puerto Escondido,15.85,-97.0667,86.0,70,1,5.75,MX,1616358182
Nome,64.5011,-165.4064,17.6,57,90,0.87,US,1616358108
Husavik,66.0449,-17.3389,46.4,57,40,19.57,IS,1616358031
Sechura,-5.5569,-80.8222,85.32,52,57,14.38,PE,1616358077
Bambanglipuro,-7.95,110.2833,77.43,86,95,3.94,ID,1616358411
Severnyy,50.677,36.5532,32.0,74,75,6.71,RU,1616358411
Franca,-20.5386,-47.4008,75.24,76,1,3.96,BR,1616358344
Mandalgovi,45.7625,106.2708,26.33,32,0,13.31,MN,1616358109
Kwang Binh,17.4833,106.6,67.71,93,100,18.57,VN,1616358412
Puerto Limón,10.0,-83.0333,80.6,74,75,12.66,CR,1616358412
Vao,-22.6667,167.4833,75.25,74,70,18.3,NC,1616357947
Plastun,44.7561,136.2939,29.43,91,100,4.56,RU,1616358413
Mariehamn,60.0973,19.9348,33.8,64,0,10.36,AX,1616358413
Chapais,49.7834,-74.8492,53.6,22,1,17.27,CA,1616358041
Tuatapere,-46.1333,167.6833,54.0,95,99,3.0,NZ,1616358414
Chokurdakh,70.6333,147.9167,-11.56,80,83,5.39,RU,1616357986
Port Blair,11.6667,92.75,78.78,72,0,4.25,IN,1616358415
Atkarsk,51.8718,45.0078,19.74,94,77,5.17,RU,1616358415
Lavrentiya,65.5833,-171.0,1.67,80,100,3.02,RU,1616358063
Nyurba,63.2842,118.3319,-25.17,96,77,5.84,RU,1616358416
Belmonte,-15.8631,-38.8828,82.4,74,75,3.44,BR,1616358416
Beringovskiy,63.05,179.3167,-2.47,87,92,7.0,RU,1616357954
Mayen,50.3333,7.2167,41.0,75,91,8.05,DE,1616358417
Ukiah,39.1502,-123.2078,60.8,39,1,3.44,US,1616358147
Kuching,1.55,110.3333,75.2,100,40,2.17,MY,1616358418
Ponta Delgada,37.7333,-25.6667,57.2,82,75,6.91,PT,1616358418
Westport,41.1415,-73.3579,59.0,28,1,5.75,US,1616358418
Zhezkazgan,47.8043,67.7144,30.83,96,100,7.92,KZ,1616358419
Te Anau,-45.4167,167.7167,48.45,93,100,0.56,NZ,1616357948
Bathsheba,13.2167,-59.5167,82.4,54,40,18.41,BB,1616357947
Bubaque,11.2833,-15.8333,76.8,72,0,18.68,GW,1616358073
Itzehoe,53.921,9.5153,39.0,65,100,5.01,DE,1616358420
Yagodnoye,62.55,149.6667,-9.02,80,34,3.09,RU,1616358420
Kutum,14.2,24.6667,75.47,16,100,7.83,SD,1616358087
Olafsvik,64.8945,-23.7142,43.12,91,100,33.2,IS,1616358421
Dongli,23.5656,116.8194,57.2,77,90,8.95,CN,1616358421
Gusinoye Ozero,51.1144,106.2614,26.29,78,100,1.32,RU,1616358422
Rāwatbhāta,24.9333,75.5833,78.1,15,0,5.28,IN,1616358422
Weiz,47.2167,15.6167,34.0,81,85,4.43,AT,1616358423
Port-Gentil,-0.7193,8.7815,78.8,94,75,10.36,GA,1616358083
Pontes e Lacerda,-15.2261,-59.3353,81.34,89,100,3.31,BR,1616358423
Baraguá,21.6967,-78.6328,87.08,46,80,5.08,CU,1616358423
Kulhudhuffushi,6.6221,73.07,82.89,70,27,2.48,MV,1616358424
Lubango,-14.9172,13.4925,60.22,96,99,2.57,AO,1616358425
Manacapuru,-3.2997,-60.6206,80.6,78,75,5.75,BR,1616358425
Qian’an,44.9932,124.0581,27.75,64,0,7.34,CN,1616358425
Bartlesville,36.7473,-95.9808,66.99,42,1,19.57,US,1616358426
Rawson,-43.3002,-65.1023,76.12,29,0,19.89,AR,1616358116
São João da Barra,-21.6403,-41.0511,82.4,65,20,16.11,BR,1616358071
Kruisfontein,-34.0033,24.7314,57.99,85,44,1.01,ZA,1616358094
Carnarvon,-24.8667,113.6333,77.0,88,0,12.66,AU,1616357994
Lindi,-10.0,39.7167,77.0,94,20,8.05,TZ,1616358427
Lianran,24.9227,102.485,43.0,87,90,15.66,CN,1616358427
Lábrea,-7.2586,-64.7981,88.43,55,28,1.66,BR,1616358428
Kozulka,50.0351,23.797,33.8,69,0,4.47,UA,1616358428
Stornoway,58.2093,-6.3865,46.99,81,90,12.66,GB,1616358428
Norman Wells,65.282,-126.8329,-4.0,65,20,4.61,CA,1616357994
Poshekhon'ye,58.4993,39.1353,28.31,96,100,12.73,RU,1616358429
Turaif,31.6725,38.6637,69.8,26,0,9.22,SA,1616358429
Sioux Lookout,50.1001,-91.917,53.6,47,75,12.66,CA,1616358142
Saint-Augustin,51.226,-58.6502,33.26,97,100,13.0,CA,1616358430
Saint-Joseph,-21.3667,55.6167,77.0,88,75,3.44,RE,1616358431
Elk Plain,47.0532,-122.3976,45.0,81,90,4.61,US,1616358431
Lompoc,34.6391,-120.4579,62.6,45,1,17.27,US,1616358411
Paamiut,61.994,-49.6678,22.26,91,97,14.05,GL,1616358432
Kapoeta,4.7717,33.5903,86.4,34,17,12.33,SS,1616358432
Coquimbo,-29.9533,-71.3436,66.2,72,0,11.5,CL,1616358432
Ternate,0.8,127.4,80.67,82,84,4.83,ID,1616358433
Nelson Bay,-32.7167,152.15,66.99,100,90,8.05,AU,1616358433
Atambua,-9.1061,124.8925,74.08,88,56,0.83,ID,1616358434
Kologriv,58.8275,44.3178,25.36,95,100,10.36,RU,1616358434
Yerbogachën,61.2767,108.0108,-17.86,93,100,6.98,RU,1616358434
Plouzané,48.3833,-4.6167,48.2,81,90,5.75,FR,1616358435
Cayenne,4.9333,-52.3333,79.0,89,75,5.75,GF,1616358435
Verkhnyaya Inta,65.9811,60.3094,9.77,89,91,6.35,RU,1616358436
Conde,-7.2597,-34.9075,82.4,74,20,11.5,BR,1616358188
Thinadhoo,0.5333,72.9333,83.05,73,97,8.57,MV,1616358436
Alice Springs,-23.7,133.8833,66.2,100,75,6.91,AU,1616358437
Adrar,20.5022,-10.0711,73.29,16,0,8.3,MR,1616358437
Kungurtug,50.5994,97.5228,18.55,66,100,1.68,RU,1616358437
Lata,40.1629,-8.3327,53.01,73,0,8.99,PT,1616358438
Laas,46.6166,10.7002,51.8,74,0,9.22,IT,1616358438
Ussel,45.55,2.3167,42.01,36,98,3.0,FR,1616358439
Kostomuksha,64.571,30.5767,25.81,93,100,13.73,RU,1616358439
Wajima,37.4,136.9,47.14,61,96,18.25,JP,1616358439
Kirando,-7.4167,30.6,74.35,76,1,6.33,TZ,1616358440
Tūkrah,32.5341,20.5791,60.66,89,7,7.72,LY,1616358440
Medvezh'yegorsk,62.9167,34.4667,26.78,96,91,5.55,RU,1616358200
Makkah al Mukarramah,21.4267,39.8261,78.04,59,0,1.52,SA,1616358368
Tateyama,34.9833,139.8667,57.99,60,99,5.99,JP,1616358441
Lagoa,39.05,-27.9833,58.75,77,100,12.39,PT,1616358441
Bolitoc,15.7395,119.8769,78.57,81,76,4.59,PH,1616358442
Phonhong,18.5007,102.4166,72.37,91,2,1.14,LA,1616358442
Gmina Świecie,53.4095,18.4474,35.01,69,0,1.01,PL,1616358442
Anadyr,64.75,177.4833,-9.0,70,75,8.95,RU,1616358443
Pingzhuang,42.0372,119.2889,31.68,37,0,6.29,CN,1616358443
Māngrol,21.1167,70.1167,75.11,81,0,3.74,IN,1616358444
Havøysund,70.9963,24.6622,30.2,69,75,21.85,NO,1616358444
Verāval,20.9,70.3667,75.49,77,0,6.62,IN,1616358445
Beroroha,-21.6667,45.1667,74.21,90,38,1.52,MG,1616358445
Talara,-4.5772,-81.2719,86.0,58,0,12.66,PE,1616358445
Sobolevo,54.4299,31.8996,27.79,94,100,13.04,RU,1616358446
Tucuruí,-3.7661,-49.6725,83.43,80,92,0.89,BR,1616358446
Ziro,27.6333,93.8333,45.97,83,2,3.53,IN,1616358447
Dymer,50.7865,30.3026,36.0,64,45,6.71,UA,1616358447
Saysain,14.5611,120.3925,78.8,83,75,4.61,PH,1616358447
Ţahţā,26.7693,31.5021,86.0,30,0,4.61,EG,1616358448
Bud,39.447,-86.1758,66.0,24,1,3.44,US,1616358448
Melfi,40.9965,15.6514,34.0,80,90,4.61,IT,1616358449
Teluk Nibung,3.001,99.8164,76.95,86,100,2.8,ID,1616358449
Fuyu,45.1833,124.8167,29.08,61,0,7.14,CN,1616358450
Schwandorf,49.3262,12.1093,37.99,75,90,6.04,DE,1616358450
Bahādurganj,26.2667,87.8167,70.83,24,0,4.07,IN,1616358450
Dingle,10.9995,122.6711,77.77,86,83,8.3,PH,1616358451
Omsukchan,62.5333,155.8,-12.96,77,43,7.31,RU,1616358451
Honningsvåg,70.9821,25.9704,30.2,69,75,21.85,NO,1616358452
San Luis,-33.295,-66.3356,74.39,24,0,7.0,AR,1616358452
Coyhaique,-45.5752,-72.0662,68.0,42,0,6.91,CL,1616358452
Hvide Sande,56.0045,8.1294,39.0,82,94,22.24,DK,1616358453
Dalvik,65.9702,-18.5286,46.4,57,40,19.57,IS,1616358453
Wanparti,16.3667,78.0667,75.61,37,0,4.07,IN,1616358454
Pangnirtung,66.1451,-65.7125,-13.0,70,75,3.44,CA,1616358454
Ruidoso,33.3317,-105.673,64.4,16,1,21.85,US,1616358454
Machilipatnam,16.1667,81.1333,77.85,77,36,6.44,IN,1616358455
Magistral'nyy,56.1725,107.4458,29.23,93,96,4.05,RU,1616358455
Viedma,-40.8135,-62.9967,74.52,20,0,9.4,AR,1616358456
Kiryat Gat,31.61,34.7642,73.0,45,100,11.45,IL,1616358423
Katsuura,35.1333,140.3,57.0,60,99,5.99,JP,1616358456
Vilyuysk,63.7553,121.6247,-16.92,96,100,7.18,RU,1616358457
Port Lincoln,-34.7333,135.8667,68.05,75,7,7.78,AU,1616358457
Mount Gambier,-37.8333,140.7667,64.4,100,75,6.91,AU,1616358457
Aleksandrovskiy Zavod,50.9237,117.9374,19.94,86,100,4.72,RU,1616358458
Half Moon Bay,37.4636,-122.4286,62.01,71,1,17.27,US,1616358458
Hammerfest,70.6634,23.6821,26.6,68,75,12.66,NO,1616358458
Khor,47.8861,134.9464,25.03,95,100,7.07,RU,1616358459
Beidao,34.5686,105.8933,38.21,39,0,2.37,CN,1616358459
Dabat,12.9842,37.765,59.7,24,11,10.2,ET,1616358460
Kailua,21.4022,-157.7394,73.4,64,90,14.97,US,1616358460
Vitim,59.4511,112.5578,-8.28,95,100,5.3,RU,1616358460
Humaitá,-7.5061,-63.0208,84.54,69,65,1.95,BR,1616358461
Sānchor,24.7553,71.7722,74.71,42,0,11.7,IN,1616358461
Denpasar,-8.65,115.2167,82.4,78,20,11.5,ID,1616358462
Man,7.4125,-7.5538,78.06,79,100,3.04,CI,1616358272
Lucea,18.451,-78.1736,82.99,69,20,14.97,JM,1616358462
Chilca,-12.5211,-76.7372,78.8,65,0,6.91,PE,1616358463
Mon,26.75,95.1,67.37,40,0,3.74,IN,1616358463
Huainan,32.6264,116.9969,40.51,47,50,2.77,CN,1616358463
Peniche,39.3558,-9.3811,53.01,74,0,3.0,PT,1616358464
Laï,9.3952,16.2989,91.49,23,96,8.08,TD,1616358464
Ibrā’,22.6906,58.5334,67.53,24,0,2.66,OM,1616358465
Longyearbyen,78.2186,15.6401,15.8,73,40,14.97,SJ,1616358465
Nishihara,26.1842,127.7558,62.6,59,75,24.16,JP,1616358465
‘Ewa Beach,21.3156,-158.0072,75.2,64,90,10.36,US,1616358466
Sinnamary,5.3833,-52.95,80.04,84,91,10.98,GF,1616358466
Forsytheganj,52.6333,29.7333,29.5,84,100,11.65,BY,1616358467
Prince George,53.9166,-122.753,32.0,86,90,16.11,CA,1616358274
Mitsamiouli,-11.3847,43.2844,82.85,73,26,5.84,KM,1616358467
Tuy Hoa,13.0833,109.3,75.13,90,32,11.36,VN,1616358468
Kulachi,31.9286,70.4592,70.09,56,100,7.67,PK,1616358367
Deputatsky,69.3,139.9,-20.88,97,10,1.9,RU,1616358468
Chauk,20.8833,94.8167,78.24,35,20,1.39,MM,1616358469
Naliya,23.2667,68.8333,74.03,86,0,9.95,IN,1616358469
Acapulco de Juárez,16.8634,-99.8901,86.0,70,1,8.05,MX,1616358469
Egvekinot,66.3167,-179.1667,-6.32,95,100,7.11,RU,1616358470
Roald,62.5833,6.1333,39.2,87,75,20.71,NO,1616358470
Ust'-Uda,54.1742,103.0304,26.38,88,100,3.02,RU,1616358471
Wuchang,44.9143,127.15,25.45,79,17,6.64,CN,1616358471
Lorengau,-2.0226,147.2712,82.44,73,19,3.38,PG,1616358471
Dauriya,49.9333,116.8667,23.97,79,100,6.85,RU,1616358472
Diplo,24.4667,69.584,73.27,80,0,9.06,PK,1616358472
Asău,46.4333,26.4,33.01,55,21,4.47,RO,1616358473
Nemuro,43.3236,145.575,36.7,97,100,21.03,JP,1616358473
Muros,42.7762,-9.0603,54.0,62,0,12.46,ES,1616358473
Erenhot,43.6475,111.9767,31.37,29,0,13.24,CN,1616358474
Khani,41.9563,42.9566,44.6,93,90,1.14,GE,1616358474
Gallup,35.5281,-108.7426,59.0,21,1,20.71,US,1616358475
Cherlak,54.155,74.8055,22.46,94,100,9.15,RU,1616358475
Praia da Vitória,38.7333,-27.0667,59.0,82,90,5.57,PT,1616358476
Ucluelet,48.9329,-125.5528,45.0,93,90,11.5,CA,1616358204
Zatoka,46.0725,30.4654,33.8,80,0,2.24,UA,1616358477
Mossamedes,-15.1961,12.1522,72.84,80,67,4.18,AO,1616358477
Poum,-20.2333,164.0167,77.86,76,90,12.12,NC,1616358477
Beloha,-25.1667,45.05,75.33,82,0,3.6,MG,1616358478
Natal,-5.795,-35.2094,84.2,70,40,13.8,BR,1616358478
Calatagan,13.8833,120.65,78.22,84,34,13.15,PH,1616358479
Isla Mujeres,21.2311,-86.731,80.6,57,40,9.22,MX,1616358479
Amursk,50.2261,136.8994,23.4,89,100,9.98,RU,1616358252
Chinsali,-10.5414,32.0816,63.61,92,99,2.98,ZM,1616358480
Vostok,46.4856,135.8833,20.66,97,100,3.33,RU,1616358480
São Gabriel da Cachoeira,-0.1303,-67.0892,89.6,62,20,8.05,BR,1616358480
Barra de Tecoanapa,16.5167,-98.75,85.15,60,0,13.6,MX,1616358481
Sisimiut,66.9395,-53.6735,10.58,88,93,11.25,GL,1616358481
Bonavista,48.6499,-53.1147,36.0,60,27,10.36,CA,1616358482
Shetpe,44.1667,52.1167,38.61,87,100,0.67,KZ,1616358482
Kabinda,-6.1333,24.4833,69.58,89,100,0.81,CD,1616358482
Moussoro,13.6408,16.4901,87.82,10,0,5.19,TD,1616358483
Sarkand,45.41,79.9186,33.69,75,100,1.43,KZ,1616358312
Korsholm,63.1142,21.6822,30.2,47,0,13.8,FI,1616358483
Isangel,-19.55,169.2667,75.2,94,75,11.21,VU,1616358484
Kaeo,-35.1,173.7833,55.99,93,66,1.99,NZ,1616358484
Golden,39.7555,-105.2211,43.0,87,90,6.91,US,1616358483
Abu Kamal,34.4506,40.9171,67.57,30,0,7.9,SY,1616358485
Santa Cruz de la Sierra,-17.8,-63.1667,73.4,83,75,16.11,BO,1616358485
Koulikoro,14.0,-7.75,90.93,15,99,6.02,ML,1616358486
Okha,53.5739,142.9478,19.26,94,100,13.49,RU,1616358486
Tonj,7.2737,28.6822,83.46,57,100,5.97,SS,1616358487
Nānākuli,21.3906,-158.1547,75.2,64,90,10.36,US,1616358487
Susanville,40.4163,-120.653,46.4,27,1,5.75,US,1616358488
Myingyan,21.4667,95.3833,79.45,28,9,2.26,MM,1616358488
Oddur,4.1213,43.8894,82.65,36,0,10.11,SO,1616358489
Tabas,33.5959,56.9244,61.56,25,5,4.34,IR,1616358489
Naze,28.3667,129.4833,55.08,73,92,20.94,JP,1616358489
Ust'-Kulom,61.6864,53.6902,14.31,94,100,6.4,RU,1616358490
Maralal,1.0968,36.698,61.84,74,72,11.21,KE,1616358490
Pacific Grove,36.6177,-121.9166,57.99,67,1,9.22,US,1616358490
Kasempa,-13.4584,25.8338,64.58,96,52,3.94,ZM,1616358491
Flinders,-34.5833,150.8552,69.01,98,100,5.99,AU,1616358491
Hailar,49.2,119.7,22.89,65,21,8.75,CN,1616358492
Yarkovo,57.4028,67.0786,17.58,97,66,4.59,RU,1616358492
Summerville,33.0185,-80.1757,66.99,59,90,24.16,US,1616358321
Lahān,26.7296,86.4951,72.0,20,0,5.23,NP,1616358493
Yugorsk,61.3133,63.3319,9.68,96,68,4.14,RU,1616358493
Namatanai,-3.6667,152.4333,79.29,83,96,10.45,PG,1616358494
Yaan,7.3833,8.5667,89.13,43,100,12.33,NG,1616358494
Madison Heights,42.4859,-83.1052,64.4,16,1,5.75,US,1616358495
Assiut,27.181,31.1837,86.0,42,0,5.21,EG,1616358418
Talaya,61.3833,152.75,-5.03,81,14,6.55,RU,1616358495
Sambava,-14.2667,50.1667,78.58,83,95,8.48,MG,1616358496
Boyuibe,-20.4167,-63.2833,73.4,64,90,4.61,BO,1616358496
Lexington Park,38.2668,-76.4538,64.4,31,20,4.61,US,1616358496
Ust-Nera,64.5667,143.2,-7.29,98,100,4.65,RU,1616358497
Mahibadhoo,3.7833,72.9667,82.83,68,94,5.17,MV,1616358497
Tabuk,17.4189,121.4443,72.54,94,61,1.66,PH,1616358498
San Jose,37.3394,-121.895,64.0,41,20,9.22,US,1616358264
Alofi,-19.0595,-169.9187,77.0,94,90,5.75,NU,1616358498
Alexandria,31.2156,29.9553,69.8,78,40,5.75,EG,1616358251
Boguchany,58.3814,97.4531,30.07,93,98,9.31,RU,1616358499
Columbus,39.9612,-82.9988,64.99,19,1,5.75,US,1616358499
Paita,-5.0892,-81.1144,86.0,58,0,12.66,PE,1616358500
Indramayu,-6.3264,108.32,80.74,80,99,2.82,ID,1616358500
Wolfenbüttel,52.1667,10.55,39.2,75,20,9.22,DE,1616358501
Aginskoye,51.1,114.53,26.1,72,100,6.26,RU,1616358501
Bolaños de Calatrava,38.9069,-3.6635,48.99,54,0,4.0,ES,1616358501
Sur,22.5667,59.5289,76.08,52,0,6.53,OM,1616358502
Jalingo,8.8833,11.3667,89.96,33,100,4.85,NG,1616358502
Rosolini,36.8242,14.9478,48.2,93,75,1.14,IT,1616358503
Yerofey Pavlovich,53.9667,121.9667,11.95,89,100,2.55,RU,1616358503
Olinda,-8.0089,-34.8553,80.6,65,20,9.22,BR,1616358503
Sørland,67.667,12.6934,32.0,80,40,4.61,NO,1616358504
Plettenberg Bay,-34.0527,23.3716,59.95,80,7,4.36,ZA,1616358505
Ahipara,-35.1667,173.1667,60.33,75,0,4.68,NZ,1616358505
Srednekolymsk,67.45,153.6833,-11.61,74,60,4.52,RU,1616358505
Morococha,-11.5997,-76.1411,42.85,79,100,6.62,PE,1616358506
Rocha,-34.4833,-54.3333,68.5,75,81,11.88,UY,1616358206
Santa Inês,-3.6667,-45.38,79.0,91,100,2.21,BR,1616358224
Wawa,9.9022,4.4192,90.05,34,15,0.76,NG,1616358507
Wanning,18.8003,110.3967,68.04,86,100,14.18,CN,1616358507
Arrondissement de Rochefort,45.9167,-1.0,48.2,81,0,9.22,FR,1616358508
Saiha,22.4833,92.9667,66.47,42,78,3.8,IN,1616358508
Bushehr,28.9684,50.8385,62.6,88,0,5.46,IR,1616358508
Bundaberg,-24.85,152.35,77.0,94,90,8.05,AU,1616358509
Karwar,14.8,74.1333,75.88,85,0,5.03,IN,1616358509
Dharampur,20.5333,73.1833,72.23,41,0,2.35,IN,1616358510
Cururupu,-1.8283,-44.8683,80.98,79,96,5.28,BR,1616358510
Bam,29.106,58.357,66.51,18,0,7.23,IR,1616358510
Batouri,4.4333,14.3667,71.6,81,100,1.19,CM,1616358511
Rundu,-17.9333,19.7667,73.56,66,100,2.21,NA,1616358422
Gijang,35.2442,129.2139,41.0,48,20,12.66,KR,1616358511
Saint-Louis,16.3333,-15.0,93.2,17,0,2.3,SN,1616358512
Arrondissement de Narbonne,43.0833,2.8333,53.01,45,100,11.99,FR,1616358512
Borovoy,55.4333,86.0833,32.0,80,90,15.66,RU,1616358512
Canalete,8.6761,-76.2042,83.66,72,36,12.3,CO,1616358513
Kamenka,51.3223,42.7678,21.56,84,48,7.34,RU,1616358513
Kununurra,-15.7667,128.7333,77.0,89,90,3.44,AU,1616358514
Rio Grande,-32.035,-52.0986,75.2,83,75,5.75,BR,1616358384
San Cristobal,7.7669,-72.225,79.63,54,11,3.38,VE,1616358515
Mpanda,-6.3655,31.0409,67.42,80,98,1.3,TZ,1616358515
Ulaanbaatar,47.9077,106.8832,10.4,72,0,2.24,MN,1616358320
Kameshkovo,56.3481,41.0047,26.51,94,100,11.99,RU,1616358516
Muriwai Beach,-36.8167,174.45,62.01,79,0,1.07,NZ,1616358516
